header:
  stamp:
    sec: 10
    nanosec: 350000000
  frame_id: odom
pose:
  pose:
    position:
      x: -0.03002686745945301
      y: -0.0031898519912005
      z: 0.0
    orientation:
      x: 0.0
      y: 0.0
      z: 0.004259894881078199
      w: 0.9999909266066379
  covariance:
  - 0.003269984328402558
  - 8.871903381476277e-07
  - 0.0
  - 0.0
  - 0.0
  - -3.5261465532899673e-07
  - 8.871903381476277e-07
  - 0.00362344892526426
  - 0.0
  - 0.0
  - 0.0
  - -0.00020529283103609946
  - 0.0
  - 0.0
  - -1.0
  - 0.0
  - 0.0
  - 0.0
  - 0.0
  - 0.0
  - 0.0
  - -1.0
  - 0.0
  - 0.0
  - 0.0
  - 0.0
  - 0.0
  - 0.0
  - -1.0
  - 0.0
  - -3.5261465532899673e-07
  - -0.00020529283103609946
  - 0.0
  - 0.0
  - 0.0
  - 0.0012926141194925926
---
header:
  stamp:
    sec: 10
    nanosec: 350000000
  frame_id: odom
pose:
  pose:
    position:
      x: -0.03002686745945301
      y: -0.0031898519912005
      z: 0.0
    orientation:
      x: 0.0
      y: 0.0
      z: 0.004259894881078199
      w: 0.9999909266066379
  covariance:
  - 0.004269984328402557
  - 8.871903381476277e-07
  - 0.0
  - 0.0
  - 0.0
  - -3.5261465532899673e-07
  - 8.871903381476277e-07
  - 0.004623448925264261
  - 0.0
  - 0.0
  - 0.0
  - -0.00020529283103609949
  - 0.0
  - 0.0
  - -1.0
  - 0.0
  - 0.0
  - 0.0
  - 0.0
  - 0.0
  - 0.0
  - -1.0
  - 0.0
  - 0.0
  - 0.0
  - 0.0
  - 0.0
  - 0.0
  - -1.0
  - 0.0
  - -3.5261465532899673e-07
  - -0.00020529283103609949
  - 0.0
  - 0.0
  - 0.0
  - 0.0016926141194925925
---
header:
  stamp:
    sec: 10
    nanosec: 350000000
  frame_id: odom
pose:
  pose:
    position:
      x: -0.03002686745945301
      y: -0.0031898519912005
      z: 0.0
    orientation:
      x: 0.0
      y: 0.0
      z: 0.004259894881078199
      w: 0.9999909266066379
  covariance:
  - 0.005269984328402556
  - 8.871903381476277e-07
  - 0.0
  - 0.0
  - 0.0
  - -3.526146553289968e-07
  - 8.871903381476277e-07
  - 0.005623448925264261
  - 0.0
  - 0.0
  - 0.0
  - -0.00020529283103609949
  - 0.0
  - 0.0
  - -1.0
  - 0.0
  - 0.0
  - 0.0
  - 0.0
  - 0.0
  - 0.0
  - -1.0
  - 0.0
  - 0.0
  - 0.0
  - 0.0
  - 0.0
  - 0.0
  - -1.0
  - 0.0
  - -3.526146553289968e-07
  - -0.00020529283103609949
  - 0.0
  - 0.0
  - 0.0
  - 0.0020926141194925925
---
header:
  stamp:
    sec: 10
    nanosec: 350000000
  frame_id: odom
pose:
  pose:
    position:
      x: -0.03002686745945301
      y: -0.0031898519912005
      z: 0.0
    orientation:
      x: 0.0
      y: 0.0
      z: 0.004259894881078199
      w: 0.9999909266066379
  covariance:
  - 0.006269984328402557
  - 8.871903381476278e-07
  - 0.0
  - 0.0
  - 0.0
  - -3.526146553289968e-07
  - 8.871903381476278e-07
  - 0.006623448925264261
  - 0.0
  - 0.0
  - 0.0
  - -0.00020529283103609949
  - 0.0
  - 0.0
  - -1.0
  - 0.0
  - 0.0
  - 0.0
  - 0.0
  - 0.0
  - 0.0
  - -1.0
  - 0.0
  - 0.0
  - 0.0
  - 0.0
  - 0.0
  - 0.0
  - -1.0
  - 0.0
  - -3.526146553289968e-07
  - -0.00020529283103609949
  - 0.0
  - 0.0
  - 0.0
  - 0.0024926141194925927
---
header:
  stamp:
    sec: 10
    nanosec: 350000000
  frame_id: odom
pose:
  pose:
    position:
      x: -0.03002686745945301
      y: -0.0031898519912005
      z: 0.0
    orientation:
      x: 0.0
      y: 0.0
      z: 0.004259894881078199
      w: 0.9999909266066379
  covariance:
  - 0.007269984328402557
  - 8.871903381476279e-07
  - 0.0
  - 0.0
  - 0.0
  - -3.5261465532899684e-07
  - 8.871903381476279e-07
  - 0.00762344892526426
  - 0.0
  - 0.0
  - 0.0
  - -0.00020529283103609949
  - 0.0
  - 0.0
  - -1.0
  - 0.0
  - 0.0
  - 0.0
  - 0.0
  - 0.0
  - 0.0
  - -1.0
  - 0.0
  - 0.0
  - 0.0
  - 0.0
  - 0.0
  - 0.0
  - -1.0
  - 0.0
  - -3.5261465532899684e-07
  - -0.00020529283103609949
  - 0.0
  - 0.0
  - 0.0
  - 0.002892614119492593
---
header:
  stamp:
    sec: 10
    nanosec: 350000000
  frame_id: odom
pose:
  pose:
    position:
      x: -0.03002686745945301
      y: -0.0031898519912005
      z: 0.0
    orientation:
      x: 0.0
      y: 0.0
      z: 0.004259894881078199
      w: 0.9999909266066379
  covariance:
  - 0.008269984328402554
  - 8.871903381476278e-07
  - 0.0
  - 0.0
  - 0.0
  - -3.5261465532899684e-07
  - 8.871903381476278e-07
  - 0.00862344892526426
  - 0.0
  - 0.0
  - 0.0
  - -0.0002052928310360995
  - 0.0
  - 0.0
  - -1.0
  - 0.0
  - 0.0
  - 0.0
  - 0.0
  - 0.0
  - 0.0
  - -1.0
  - 0.0
  - 0.0
  - 0.0
  - 0.0
  - 0.0
  - 0.0
  - -1.0
  - 0.0
  - -3.5261465532899684e-07
  - -0.0002052928310360995
  - 0.0
  - 0.0
  - 0.0
  - 0.003292614119492593
---
header:
  stamp:
    sec: 10
    nanosec: 350000000
  frame_id: odom
pose:
  pose:
    position:
      x: -0.03002686745945301
      y: -0.0031898519912005
      z: 0.0
    orientation:
      x: 0.0
      y: 0.0
      z: 0.004259894881078199
      w: 0.9999909266066379
  covariance:
  - 0.009269984328402555
  - 8.871903381476279e-07
  - 0.0
  - 0.0
  - 0.0
  - -3.526146553289968e-07
  - 8.871903381476279e-07
  - 0.009623448925264259
  - 0.0
  - 0.0
  - 0.0
  - -0.00020529283103609949
  - 0.0
  - 0.0
  - -1.0
  - 0.0
  - 0.0
  - 0.0
  - 0.0
  - 0.0
  - 0.0
  - -1.0
  - 0.0
  - 0.0
  - 0.0
  - 0.0
  - 0.0
  - 0.0
  - -1.0
  - 0.0
  - -3.526146553289968e-07
  - -0.00020529283103609949
  - 0.0
  - 0.0
  - 0.0
  - 0.003692614119492593
---
header:
  stamp:
    sec: 10
    nanosec: 350000000
  frame_id: odom
pose:
  pose:
    position:
      x: -0.03002686745945301
      y: -0.0031898519912005
      z: 0.0
    orientation:
      x: 0.0
      y: 0.0
      z: 0.004259894881078199
      w: 0.9999909266066379
  covariance:
  - 0.010269984328402555
  - 8.87190338147628e-07
  - 0.0
  - 0.0
  - 0.0
  - -3.5261465532899684e-07
  - 8.87190338147628e-07
  - 0.010623448925264262
  - 0.0
  - 0.0
  - 0.0
  - -0.0002052928310360995
  - 0.0
  - 0.0
  - -1.0
  - 0.0
  - 0.0
  - 0.0
  - 0.0
  - 0.0
  - 0.0
  - -1.0
  - 0.0
  - 0.0
  - 0.0
  - 0.0
  - 0.0
  - 0.0
  - -1.0
  - 0.0
  - -3.5261465532899684e-07
  - -0.0002052928310360995
  - 0.0
  - 0.0
  - 0.0
  - 0.004092614119492593
---
header:
  stamp:
    sec: 10
    nanosec: 400000000
  frame_id: odom
pose:
  pose:
    position:
      x: -0.044477669178076405
      y: -0.0033129731351276264
      z: 0.0
    orientation:
      x: 0.0
      y: 0.0
      z: 0.004259894881078199
      w: 0.9999909266066379
  covariance:
  - 0.0112699843036131
  - 8.597284384937679e-07
  - 0.0
  - 0.0
  - 0.0
  - 1.512726767152391e-07
  - 8.597284384937679e-07
  - 0.011630236860142204
  - 0.0
  - 0.0
  - 0.0
  - -0.00026443438618772543
  - 0.0
  - 0.0
  - -1.0
  - 0.0
  - 0.0
  - 0.0
  - 0.0
  - 0.0
  - 0.0
  - -1.0
  - 0.0
  - 0.0
  - 0.0
  - 0.0
  - 0.0
  - 0.0
  - -1.0
  - 0.0
  - 1.512726767152391e-07
  - -0.00026443438618772543
  - 0.0
  - 0.0
  - 0.0
  - 0.004492614119492594
---
header:
  stamp:
    sec: 10
    nanosec: 400000000
  frame_id: odom
pose:
  pose:
    position:
      x: -0.04359440459353828
      y: -0.007528040638690671
      z: 0.0
    orientation:
      x: 0.0
      y: 0.0
      z: 0.005357198322685898
      w: 0.9999856501101061
  covariance:
  - 0.0008354089390440759
  - 0.0007562713771886693
  - 0.0
  - 0.0
  - 0.0
  - -0.00037888769198268204
  - 0.0007562713771886693
  - 0.0017201532110162584
  - 0.0
  - 0.0
  - 0.0
  - -0.0007229599719327078
  - 0.0
  - 0.0
  - -1.0
  - 0.0
  - 0.0
  - 0.0
  - 0.0
  - 0.0
  - 0.0
  - -1.0
  - 0.0
  - 0.0
  - 0.0
  - 0.0
  - 0.0
  - 0.0
  - -1.0
  - 0.0
  - -0.00037888769198268204
  - -0.0007229599719327078
  - 0.0
  - 0.0
  - 0.0
  - 0.0003490418917192328
---
header:
  stamp:
    sec: 10
    nanosec: 450000000
  frame_id: odom
pose:
  pose:
    position:
      x: -0.057730760073358506
      y: -0.00767950967914479
      z: 0.0
    orientation:
      x: 0.0
      y: 0.0
      z: 0.005357198322685834
      w: 0.9999856501101061
  covariance:
  - 0.0018352941675418098
  - 0.0007615172148606806
  - 0.0
  - 0.0
  - 0.0
  - -0.000378834822942265
  - 0.0007615172148606806
  - 0.0027406630006642403
  - 0.0
  - 0.0
  - 0.0
  - -0.0007278941521913999
  - 0.0
  - 0.0
  - -1.0
  - 0.0
  - 0.0
  - 0.0
  - 0.0
  - 0.0
  - 0.0
  - -1.0
  - 0.0
  - 0.0
  - 0.0
  - 0.0
  - 0.0
  - 0.0
  - -1.0
  - 0.0
  - -0.000378834822942265
  - -0.0007278941521913999
  - 0.0
  - 0.0
  - 0.0
  - 0.0007490418917192328
---
header:
  stamp:
    sec: 10
    nanosec: 450000000
  frame_id: odom
pose:
  pose:
    position:
      x: -0.057730760073358506
      y: -0.00767950967914479
      z: 0.0
    orientation:
      x: 0.0
      y: 0.0
      z: 0.005357198322685834
      w: 0.9999856501101061
  covariance:
  - 0.00283529416754181
  - 0.0007615172148606808
  - 0.0
  - 0.0
  - 0.0
  - -0.00037883482294226504
  - 0.0007615172148606808
  - 0.0037406630006642408
  - 0.0
  - 0.0
  - 0.0
  - -0.0007278941521914
  - 0.0
  - 0.0
  - -1.0
  - 0.0
  - 0.0
  - 0.0
  - 0.0
  - 0.0
  - 0.0
  - -1.0
  - 0.0
  - 0.0
  - 0.0
  - 0.0
  - 0.0
  - 0.0
  - -1.0
  - 0.0
  - -0.00037883482294226504
  - -0.0007278941521914
  - 0.0
  - 0.0
  - 0.0
  - 0.001149041891719233
---
header:
  stamp:
    sec: 10
    nanosec: 450000000
  frame_id: odom
pose:
  pose:
    position:
      x: -0.057730760073358506
      y: -0.00767950967914479
      z: 0.0
    orientation:
      x: 0.0
      y: 0.0
      z: 0.005357198322685834
      w: 0.9999856501101061
  covariance:
  - 0.0038352941675418102
  - 0.0007615172148606808
  - 0.0
  - 0.0
  - 0.0
  - -0.00037883482294226504
  - 0.0007615172148606808
  - 0.004740663000664241
  - 0.0
  - 0.0
  - 0.0
  - -0.0007278941521914001
  - 0.0
  - 0.0
  - -1.0
  - 0.0
  - 0.0
  - 0.0
  - 0.0
  - 0.0
  - 0.0
  - -1.0
  - 0.0
  - 0.0
  - 0.0
  - 0.0
  - 0.0
  - 0.0
  - -1.0
  - 0.0
  - -0.00037883482294226504
  - -0.0007278941521914001
  - 0.0
  - 0.0
  - 0.0
  - 0.0015490418917192329
---
header:
  stamp:
    sec: 10
    nanosec: 450000000
  frame_id: odom
pose:
  pose:
    position:
      x: -0.057730760073358506
      y: -0.00767950967914479
      z: 0.0
    orientation:
      x: 0.0
      y: 0.0
      z: 0.005357198322685834
      w: 0.9999856501101061
  covariance:
  - 0.004835294167541811
  - 0.0007615172148606809
  - 0.0
  - 0.0
  - 0.0
  - -0.0003788348229422651
  - 0.0007615172148606809
  - 0.005740663000664241
  - 0.0
  - 0.0
  - 0.0
  - -0.0007278941521914002
  - 0.0
  - 0.0
  - -1.0
  - 0.0
  - 0.0
  - 0.0
  - 0.0
  - 0.0
  - 0.0
  - -1.0
  - 0.0
  - 0.0
  - 0.0
  - 0.0
  - 0.0
  - 0.0
  - -1.0
  - 0.0
  - -0.0003788348229422651
  - -0.0007278941521914002
  - 0.0
  - 0.0
  - 0.0
  - 0.0019490418917192328
---
header:
  stamp:
    sec: 10
    nanosec: 450000000
  frame_id: odom
pose:
  pose:
    position:
      x: -0.057730760073358506
      y: -0.00767950967914479
      z: 0.0
    orientation:
      x: 0.0
      y: 0.0
      z: 0.005357198322685834
      w: 0.9999856501101061
  covariance:
  - 0.00583529416754181
  - 0.0007615172148606809
  - 0.0
  - 0.0
  - 0.0
  - -0.00037883482294226515
  - 0.0007615172148606809
  - 0.006740663000664241
  - 0.0
  - 0.0
  - 0.0
  - -0.0007278941521914002
  - 0.0
  - 0.0
  - -1.0
  - 0.0
  - 0.0
  - 0.0
  - 0.0
  - 0.0
  - 0.0
  - -1.0
  - 0.0
  - 0.0
  - 0.0
  - 0.0
  - 0.0
  - 0.0
  - -1.0
  - 0.0
  - -0.00037883482294226515
  - -0.0007278941521914002
  - 0.0
  - 0.0
  - 0.0
  - 0.002349041891719233
---
header:
  stamp:
    sec: 10
    nanosec: 450000000
  frame_id: odom
pose:
  pose:
    position:
      x: -0.057730760073358506
      y: -0.00767950967914479
      z: 0.0
    orientation:
      x: 0.0
      y: 0.0
      z: 0.005357198322685834
      w: 0.9999856501101061
  covariance:
  - 0.00683529416754181
  - 0.0007615172148606809
  - 0.0
  - 0.0
  - 0.0
  - -0.0003788348229422651
  - 0.0007615172148606809
  - 0.00774066300066424
  - 0.0
  - 0.0
  - 0.0
  - -0.0007278941521914001
  - 0.0
  - 0.0
  - -1.0
  - 0.0
  - 0.0
  - 0.0
  - 0.0
  - 0.0
  - 0.0
  - -1.0
  - 0.0
  - 0.0
  - 0.0
  - 0.0
  - 0.0
  - 0.0
  - -1.0
  - 0.0
  - -0.0003788348229422651
  - -0.0007278941521914001
  - 0.0
  - 0.0
  - 0.0
  - 0.002749041891719233
---
header:
  stamp:
    sec: 10
    nanosec: 450000000
  frame_id: odom
pose:
  pose:
    position:
      x: -0.057730760073358506
      y: -0.00767950967914479
      z: 0.0
    orientation:
      x: 0.0
      y: 0.0
      z: 0.005357198322685834
      w: 0.9999856501101061
  covariance:
  - 0.007835294167541812
  - 0.0007615172148606809
  - 0.0
  - 0.0
  - 0.0
  - -0.0003788348229422651
  - 0.0007615172148606809
  - 0.00874066300066424
  - 0.0
  - 0.0
  - 0.0
  - -0.0007278941521914001
  - 0.0
  - 0.0
  - -1.0
  - 0.0
  - 0.0
  - 0.0
  - 0.0
  - 0.0
  - 0.0
  - -1.0
  - 0.0
  - 0.0
  - 0.0
  - 0.0
  - 0.0
  - 0.0
  - -1.0
  - 0.0
  - -0.0003788348229422651
  - -0.0007278941521914001
  - 0.0
  - 0.0
  - 0.0
  - 0.003149041891719233
---
header:
  stamp:
    sec: 10
    nanosec: 450000000
  frame_id: odom
pose:
  pose:
    position:
      x: -0.057730760073358506
      y: -0.00767950967914479
      z: 0.0
    orientation:
      x: 0.0
      y: 0.0
      z: 0.005357198322685834
      w: 0.9999856501101061
  covariance:
  - 0.00883529416754181
  - 0.0007615172148606809
  - 0.0
  - 0.0
  - 0.0
  - -0.0003788348229422651
  - 0.0007615172148606809
  - 0.009740663000664241
  - 0.0
  - 0.0
  - 0.0
  - -0.0007278941521914001
  - 0.0
  - 0.0
  - -1.0
  - 0.0
  - 0.0
  - 0.0
  - 0.0
  - 0.0
  - 0.0
  - -1.0
  - 0.0
  - 0.0
  - 0.0
  - 0.0
  - 0.0
  - 0.0
  - -1.0
  - 0.0
  - -0.0003788348229422651
  - -0.0007278941521914001
  - 0.0
  - 0.0
  - 0.0
  - 0.0035490418917192334
---
header:
  stamp:
    sec: 10
    nanosec: 450000000
  frame_id: odom
pose:
  pose:
    position:
      x: -0.057730760073358506
      y: -0.00767950967914479
      z: 0.0
    orientation:
      x: 0.0
      y: 0.0
      z: 0.005357198322685834
      w: 0.9999856501101061
  covariance:
  - 0.009835294167541812
  - 0.0007615172148606809
  - 0.0
  - 0.0
  - 0.0
  - -0.0003788348229422651
  - 0.0007615172148606809
  - 0.010740663000664239
  - 0.0
  - 0.0
  - 0.0
  - -0.0007278941521914001
  - 0.0
  - 0.0
  - -1.0
  - 0.0
  - 0.0
  - 0.0
  - 0.0
  - 0.0
  - 0.0
  - -1.0
  - 0.0
  - 0.0
  - 0.0
  - 0.0
  - 0.0
  - 0.0
  - -1.0
  - 0.0
  - -0.0003788348229422651
  - -0.0007278941521914001
  - 0.0
  - 0.0
  - 0.0
  - 0.0039490418917192335
---
header:
  stamp:
    sec: 10
    nanosec: 450000000
  frame_id: odom
pose:
  pose:
    position:
      x: -0.057730760073358506
      y: -0.00767950967914479
      z: 0.0
    orientation:
      x: 0.0
      y: 0.0
      z: 0.005357198322685834
      w: 0.9999856501101061
  covariance:
  - 0.01083529416754181
  - 0.0007615172148606808
  - 0.0
  - 0.0
  - 0.0
  - -0.00037883482294226515
  - 0.0007615172148606808
  - 0.01174066300066424
  - 0.0
  - 0.0
  - 0.0
  - -0.0007278941521914002
  - 0.0
  - 0.0
  - -1.0
  - 0.0
  - 0.0
  - 0.0
  - 0.0
  - 0.0
  - 0.0
  - -1.0
  - 0.0
  - 0.0
  - 0.0
  - 0.0
  - 0.0
  - 0.0
  - -1.0
  - 0.0
  - -0.00037883482294226515
  - -0.0007278941521914002
  - 0.0
  - 0.0
  - 0.0
  - 0.004349041891719234
---
header:
  stamp:
    sec: 10
    nanosec: 500000000
  frame_id: odom
pose:
  pose:
    position:
      x: -0.07186711555317873
      y: -0.007830978719598907
      z: 0.0
    orientation:
      x: 0.0
      y: 0.0
      z: 0.005357198322685834
      w: 0.9999856501101061
  covariance:
  - 0.011835179503827072
  - 0.0007667529929007935
  - 0.0
  - 0.0
  - 0.0
  - -0.0003781760777400317
  - 0.0007667529929007935
  - 0.012762111639149504
  - 0.0
  - 0.0
  - 0.0
  - -0.0007893737543693731
  - 0.0
  - 0.0
  - -1.0
  - 0.0
  - 0.0
  - 0.0
  - 0.0
  - 0.0
  - 0.0
  - -1.0
  - 0.0
  - 0.0
  - 0.0
  - 0.0
  - 0.0
  - 0.0
  - -1.0
  - 0.0
  - -0.0003781760777400317
  - -0.0007893737543693731
  - 0.0
  - 0.0
  - 0.0
  - 0.004749041891719234
---
header:
  stamp:
    sec: 10
    nanosec: 500000000
  frame_id: odom
pose:
  pose:
    position:
      x: -0.07201904428607887
      y: -0.0023881496150639963
      z: 0.0
    orientation:
      x: 0.0
      y: 0.0
      z: 0.003406929132269993
      w: 0.999994196400103
  covariance:
  - 0.0008498637072533739
  - 0.0007958484349892744
  - 0.0
  - 0.0
  - 0.0
  - -0.0003909735100684729
  - 0.0007958484349892744
  - 0.001830439362235428
  - 0.0
  - 0.0
  - 0.0
  - -0.0007609545518779086
  - 0.0
  - 0.0
  - -1.0
  - 0.0
  - 0.0
  - 0.0
  - 0.0
  - 0.0
  - 0.0
  - -1.0
  - 0.0
  - 0.0
  - 0.0
  - 0.0
  - 0.0
  - 0.0
  - -1.0
  - 0.0
  - -0.0003909735100684729
  - -0.0007609545518779086
  - 0.0
  - 0.0
  - 0.0
  - 0.0003613146284257239
---
header:
  stamp:
    sec: 10
    nanosec: 550000000
  frame_id: odom
pose:
  pose:
    position:
      x: -0.08631188871638194
      y: -0.0026426240061325425
      z: 0.0
    orientation:
      x: 0.0
      y: 0.0
      z: 0.0036313272175400924
      w: 0.9999934067095838
  covariance:
  - 0.0018496647451593058
  - 0.0008012416009386768
  - 0.0
  - 0.0
  - 0.0
  - -0.00039088156474842
  - 0.0008012416009386768
  - 0.0028522655835965553
  - 0.0
  - 0.0
  - 0.0
  - -0.0007661187656523902
  - 0.0
  - 0.0
  - -1.0
  - 0.0
  - 0.0
  - 0.0
  - 0.0
  - 0.0
  - 0.0
  - -1.0
  - 0.0
  - 0.0
  - 0.0
  - 0.0
  - 0.0
  - 0.0
  - -1.0
  - 0.0
  - -0.00039088156474842
  - -0.0007661187656523902
  - 0.0
  - 0.0
  - 0.0
  - 0.0007613146284257239
---
header:
  stamp:
    sec: 10
    nanosec: 550000000
  frame_id: odom
pose:
  pose:
    position:
      x: -0.08631188871638194
      y: -0.0026426240061325425
      z: 0.0
    orientation:
      x: 0.0
      y: 0.0
      z: 0.0036313272175400924
      w: 0.9999934067095838
  covariance:
  - 0.0028496647451593062
  - 0.0008012416009386769
  - 0.0
  - 0.0
  - 0.0
  - -0.00039088156474841994
  - 0.0008012416009386769
  - 0.0038522655835965557
  - 0.0
  - 0.0
  - 0.0
  - -0.0007661187656523902
  - 0.0
  - 0.0
  - -1.0
  - 0.0
  - 0.0
  - 0.0
  - 0.0
  - 0.0
  - 0.0
  - -1.0
  - 0.0
  - 0.0
  - 0.0
  - 0.0
  - 0.0
  - 0.0
  - -1.0
  - 0.0
  - -0.00039088156474841994
  - -0.0007661187656523902
  - 0.0
  - 0.0
  - 0.0
  - 0.0011613146284257239
---
header:
  stamp:
    sec: 10
    nanosec: 550000000
  frame_id: odom
pose:
  pose:
    position:
      x: -0.08631188871638194
      y: -0.0026426240061325425
      z: 0.0
    orientation:
      x: 0.0
      y: 0.0
      z: 0.0036313272175400924
      w: 0.9999934067095838
  covariance:
  - 0.003849664745159306
  - 0.0008012416009386768
  - 0.0
  - 0.0
  - 0.0
  - -0.00039088156474841994
  - 0.0008012416009386768
  - 0.004852265583596556
  - 0.0
  - 0.0
  - 0.0
  - -0.0007661187656523902
  - 0.0
  - 0.0
  - -1.0
  - 0.0
  - 0.0
  - 0.0
  - 0.0
  - 0.0
  - 0.0
  - -1.0
  - 0.0
  - 0.0
  - 0.0
  - 0.0
  - 0.0
  - 0.0
  - -1.0
  - 0.0
  - -0.00039088156474841994
  - -0.0007661187656523902
  - 0.0
  - 0.0
  - 0.0
  - 0.0015613146284257238
---
header:
  stamp:
    sec: 10
    nanosec: 550000000
  frame_id: odom
pose:
  pose:
    position:
      x: -0.08631188871638194
      y: -0.0026426240061325425
      z: 0.0
    orientation:
      x: 0.0
      y: 0.0
      z: 0.0036313272175400924
      w: 0.9999934067095838
  covariance:
  - 0.004849664745159307
  - 0.0008012416009386769
  - 0.0
  - 0.0
  - 0.0
  - -0.00039088156474841994
  - 0.0008012416009386769
  - 0.005852265583596556
  - 0.0
  - 0.0
  - 0.0
  - -0.0007661187656523902
  - 0.0
  - 0.0
  - -1.0
  - 0.0
  - 0.0
  - 0.0
  - 0.0
  - 0.0
  - 0.0
  - -1.0
  - 0.0
  - 0.0
  - 0.0
  - 0.0
  - 0.0
  - 0.0
  - -1.0
  - 0.0
  - -0.00039088156474841994
  - -0.0007661187656523902
  - 0.0
  - 0.0
  - 0.0
  - 0.001961314628425724
---
header:
  stamp:
    sec: 10
    nanosec: 550000000
  frame_id: odom
pose:
  pose:
    position:
      x: -0.08631188871638194
      y: -0.0026426240061325425
      z: 0.0
    orientation:
      x: 0.0
      y: 0.0
      z: 0.0036313272175400924
      w: 0.9999934067095838
  covariance:
  - 0.005849664745159306
  - 0.0008012416009386769
  - 0.0
  - 0.0
  - 0.0
  - -0.0003908815647484199
  - 0.0008012416009386769
  - 0.006852265583596556
  - 0.0
  - 0.0
  - 0.0
  - -0.0007661187656523902
  - 0.0
  - 0.0
  - -1.0
  - 0.0
  - 0.0
  - 0.0
  - 0.0
  - 0.0
  - 0.0
  - -1.0
  - 0.0
  - 0.0
  - 0.0
  - 0.0
  - 0.0
  - 0.0
  - -1.0
  - 0.0
  - -0.0003908815647484199
  - -0.0007661187656523902
  - 0.0
  - 0.0
  - 0.0
  - 0.002361314628425724
---
header:
  stamp:
    sec: 10
    nanosec: 550000000
  frame_id: odom
pose:
  pose:
    position:
      x: -0.08631188871638194
      y: -0.0026426240061325425
      z: 0.0
    orientation:
      x: 0.0
      y: 0.0
      z: 0.0036313272175400924
      w: 0.9999934067095838
  covariance:
  - 0.006849664745159306
  - 0.0008012416009386769
  - 0.0
  - 0.0
  - 0.0
  - -0.00039088156474841994
  - 0.0008012416009386769
  - 0.007852265583596555
  - 0.0
  - 0.0
  - 0.0
  - -0.0007661187656523902
  - 0.0
  - 0.0
  - -1.0
  - 0.0
  - 0.0
  - 0.0
  - 0.0
  - 0.0
  - 0.0
  - -1.0
  - 0.0
  - 0.0
  - 0.0
  - 0.0
  - 0.0
  - 0.0
  - -1.0
  - 0.0
  - -0.00039088156474841994
  - -0.0007661187656523902
  - 0.0
  - 0.0
  - 0.0
  - 0.002761314628425724
---
header:
  stamp:
    sec: 10
    nanosec: 550000000
  frame_id: odom
pose:
  pose:
    position:
      x: -0.08631188871638194
      y: -0.0026426240061325425
      z: 0.0
    orientation:
      x: 0.0
      y: 0.0
      z: 0.0036313272175400924
      w: 0.9999934067095838
  covariance:
  - 0.007849664745159305
  - 0.000801241600938677
  - 0.0
  - 0.0
  - 0.0
  - -0.00039088156474841994
  - 0.000801241600938677
  - 0.008852265583596556
  - 0.0
  - 0.0
  - 0.0
  - -0.0007661187656523902
  - 0.0
  - 0.0
  - -1.0
  - 0.0
  - 0.0
  - 0.0
  - 0.0
  - 0.0
  - 0.0
  - -1.0
  - 0.0
  - 0.0
  - 0.0
  - 0.0
  - 0.0
  - 0.0
  - -1.0
  - 0.0
  - -0.00039088156474841994
  - -0.0007661187656523902
  - 0.0
  - 0.0
  - 0.0
  - 0.0031613146284257244
---
header:
  stamp:
    sec: 10
    nanosec: 550000000
  frame_id: odom
pose:
  pose:
    position:
      x: -0.08631188871638194
      y: -0.0026426240061325425
      z: 0.0
    orientation:
      x: 0.0
      y: 0.0
      z: 0.0036313272175400924
      w: 0.9999934067095838
  covariance:
  - 0.008849664745159304
  - 0.000801241600938677
  - 0.0
  - 0.0
  - 0.0
  - -0.00039088156474841994
  - 0.000801241600938677
  - 0.009852265583596555
  - 0.0
  - 0.0
  - 0.0
  - -0.0007661187656523902
  - 0.0
  - 0.0
  - -1.0
  - 0.0
  - 0.0
  - 0.0
  - 0.0
  - 0.0
  - 0.0
  - -1.0
  - 0.0
  - 0.0
  - 0.0
  - 0.0
  - 0.0
  - 0.0
  - -1.0
  - 0.0
  - -0.00039088156474841994
  - -0.0007661187656523902
  - 0.0
  - 0.0
  - 0.0
  - 0.0035613146284257245
---
header:
  stamp:
    sec: 10
    nanosec: 550000000
  frame_id: odom
pose:
  pose:
    position:
      x: -0.08631188871638194
      y: -0.0026426240061325425
      z: 0.0
    orientation:
      x: 0.0
      y: 0.0
      z: 0.0036313272175400924
      w: 0.9999934067095838
  covariance:
  - 0.009849664745159307
  - 0.0008012416009386771
  - 0.0
  - 0.0
  - 0.0
  - -0.00039088156474841994
  - 0.0008012416009386771
  - 0.010852265583596556
  - 0.0
  - 0.0
  - 0.0
  - -0.0007661187656523902
  - 0.0
  - 0.0
  - -1.0
  - 0.0
  - 0.0
  - 0.0
  - 0.0
  - 0.0
  - 0.0
  - -1.0
  - 0.0
  - 0.0
  - 0.0
  - 0.0
  - 0.0
  - 0.0
  - -1.0
  - 0.0
  - -0.00039088156474841994
  - -0.0007661187656523902
  - 0.0
  - 0.0
  - 0.0
  - 0.003961314628425724
---
header:
  stamp:
    sec: 10
    nanosec: 600000000
  frame_id: odom
pose:
  pose:
    position:
      x: -0.10060689911455174
      y: -0.002589362004924531
      z: 0.0
    orientation:
      x: 0.0
      y: 0.0
      z: 0.003406929132269868
      w: 0.999994196400103
  covariance:
  - 0.010849706394665674
  - 0.0008068730780589732
  - 0.0
  - 0.0
  - 0.0
  - -0.00039109255229294445
  - 0.0008068730780589732
  - 0.011874978419076063
  - 0.0
  - 0.0
  - 0.0
  - -0.0008227457994561581
  - 0.0
  - 0.0
  - -1.0
  - 0.0
  - 0.0
  - 0.0
  - 0.0
  - 0.0
  - 0.0
  - -1.0
  - 0.0
  - 0.0
  - 0.0
  - 0.0
  - 0.0
  - 0.0
  - -1.0
  - 0.0
  - -0.00039109255229294445
  - -0.0008227457994561581
  - 0.0
  - 0.0
  - 0.0
  - 0.0043613146284257245
---
header:
  stamp:
    sec: 10
    nanosec: 600000000
  frame_id: odom
pose:
  pose:
    position:
      x: -0.09864170931990497
      y: -0.0035749915503509597
      z: 0.0
    orientation:
      x: 0.0
      y: 0.0
      z: 0.003884665133147652
      w: 0.9999924546599356
  covariance:
  - 0.0008444839514746003
  - 0.0007924807100888417
  - 0.0
  - 0.0
  - 0.0
  - -0.000385464054390361
  - 0.0007924807100888417
  - 0.0018454801247311187
  - 0.0
  - 0.0
  - 0.0
  - -0.0007590789183793323
  - 0.0
  - 0.0
  - -1.0
  - 0.0
  - 0.0
  - 0.0
  - 0.0
  - 0.0
  - 0.0
  - -1.0
  - 0.0
  - 0.0
  - 0.0
  - 0.0
  - 0.0
  - 0.0
  - -1.0
  - 0.0
  - -0.000385464054390361
  - -0.0007590789183793323
  - 0.0
  - 0.0
  - 0.0
  - 0.0003570162343020911
---
header:
  stamp:
    sec: 10
    nanosec: 650000000
  frame_id: odom
pose:
  pose:
    position:
      x: -0.11293674486989672
      y: -0.003528972543109803
      z: 0.0
    orientation:
      x: 0.0
      y: 0.0
      z: 0.004109062815544154
      w: 0.9999915577657533
  covariance:
  - 0.0018445194295768914
  - 0.0007980260993685909
  - 0.0
  - 0.0
  - 0.0
  - -0.00038548048392303245
  - 0.0007980260993685909
  - 0.002867255200546301
  - 0.0
  - 0.0
  - 0.0
  - -0.0007641824781406048
  - 0.0
  - 0.0
  - -1.0
  - 0.0
  - 0.0
  - 0.0
  - 0.0
  - 0.0
  - 0.0
  - -1.0
  - 0.0
  - 0.0
  - 0.0
  - 0.0
  - 0.0
  - 0.0
  - -1.0
  - 0.0
  - -0.00038548048392303245
  - -0.0007641824781406048
  - 0.0
  - 0.0
  - 0.0
  - 0.0007570162343020911
---
header:
  stamp:
    sec: 10
    nanosec: 650000000
  frame_id: odom
pose:
  pose:
    position:
      x: -0.11293674486989672
      y: -0.003528972543109803
      z: 0.0
    orientation:
      x: 0.0
      y: 0.0
      z: 0.004109062815544154
      w: 0.9999915577657533
  covariance:
  - 0.002844519429576892
  - 0.0007980260993685909
  - 0.0
  - 0.0
  - 0.0
  - -0.0003854804839230325
  - 0.0007980260993685909
  - 0.003867255200546301
  - 0.0
  - 0.0
  - 0.0
  - -0.0007641824781406048
  - 0.0
  - 0.0
  - -1.0
  - 0.0
  - 0.0
  - 0.0
  - 0.0
  - 0.0
  - 0.0
  - -1.0
  - 0.0
  - 0.0
  - 0.0
  - 0.0
  - 0.0
  - 0.0
  - -1.0
  - 0.0
  - -0.0003854804839230325
  - -0.0007641824781406048
  - 0.0
  - 0.0
  - 0.0
  - 0.001157016234302091
---
header:
  stamp:
    sec: 10
    nanosec: 650000000
  frame_id: odom
pose:
  pose:
    position:
      x: -0.11293674486989672
      y: -0.003528972543109803
      z: 0.0
    orientation:
      x: 0.0
      y: 0.0
      z: 0.004109062815544154
      w: 0.9999915577657533
  covariance:
  - 0.003844519429576892
  - 0.0007980260993685909
  - 0.0
  - 0.0
  - 0.0
  - -0.0003854804839230325
  - 0.0007980260993685909
  - 0.004867255200546302
  - 0.0
  - 0.0
  - 0.0
  - -0.0007641824781406048
  - 0.0
  - 0.0
  - -1.0
  - 0.0
  - 0.0
  - 0.0
  - 0.0
  - 0.0
  - 0.0
  - -1.0
  - 0.0
  - 0.0
  - 0.0
  - 0.0
  - 0.0
  - 0.0
  - -1.0
  - 0.0
  - -0.0003854804839230325
  - -0.0007641824781406048
  - 0.0
  - 0.0
  - 0.0
  - 0.001557016234302091
---
header:
  stamp:
    sec: 10
    nanosec: 650000000
  frame_id: odom
pose:
  pose:
    position:
      x: -0.11293674486989672
      y: -0.003528972543109803
      z: 0.0
    orientation:
      x: 0.0
      y: 0.0
      z: 0.004109062815544154
      w: 0.9999915577657533
  covariance:
  - 0.004844519429576891
  - 0.0007980260993685909
  - 0.0
  - 0.0
  - 0.0
  - -0.00038548048392303245
  - 0.0007980260993685909
  - 0.005867255200546301
  - 0.0
  - 0.0
  - 0.0
  - -0.0007641824781406048
  - 0.0
  - 0.0
  - -1.0
  - 0.0
  - 0.0
  - 0.0
  - 0.0
  - 0.0
  - 0.0
  - -1.0
  - 0.0
  - 0.0
  - 0.0
  - 0.0
  - 0.0
  - 0.0
  - -1.0
  - 0.0
  - -0.00038548048392303245
  - -0.0007641824781406048
  - 0.0
  - 0.0
  - 0.0
  - 0.001957016234302091
---
header:
  stamp:
    sec: 10
    nanosec: 650000000
  frame_id: odom
pose:
  pose:
    position:
      x: -0.11293674486989672
      y: -0.003528972543109803
      z: 0.0
    orientation:
      x: 0.0
      y: 0.0
      z: 0.004109062815544154
      w: 0.9999915577657533
  covariance:
  - 0.005844519429576891
  - 0.0007980260993685907
  - 0.0
  - 0.0
  - 0.0
  - -0.0003854804839230324
  - 0.0007980260993685907
  - 0.0068672552005463
  - 0.0
  - 0.0
  - 0.0
  - -0.0007641824781406047
  - 0.0
  - 0.0
  - -1.0
  - 0.0
  - 0.0
  - 0.0
  - 0.0
  - 0.0
  - 0.0
  - -1.0
  - 0.0
  - 0.0
  - 0.0
  - 0.0
  - 0.0
  - 0.0
  - -1.0
  - 0.0
  - -0.0003854804839230324
  - -0.0007641824781406047
  - 0.0
  - 0.0
  - 0.0
  - 0.002357016234302091
---
header:
  stamp:
    sec: 10
    nanosec: 650000000
  frame_id: odom
pose:
  pose:
    position:
      x: -0.11293674486989672
      y: -0.003528972543109803
      z: 0.0
    orientation:
      x: 0.0
      y: 0.0
      z: 0.004109062815544154
      w: 0.9999915577657533
  covariance:
  - 0.006844519429576891
  - 0.0007980260993685907
  - 0.0
  - 0.0
  - 0.0
  - -0.0003854804839230324
  - 0.0007980260993685907
  - 0.0078672552005463
  - 0.0
  - 0.0
  - 0.0
  - -0.0007641824781406048
  - 0.0
  - 0.0
  - -1.0
  - 0.0
  - 0.0
  - 0.0
  - 0.0
  - 0.0
  - 0.0
  - -1.0
  - 0.0
  - 0.0
  - 0.0
  - 0.0
  - 0.0
  - 0.0
  - -1.0
  - 0.0
  - -0.0003854804839230324
  - -0.0007641824781406048
  - 0.0
  - 0.0
  - 0.0
  - 0.0027570162343020913
---
header:
  stamp:
    sec: 10
    nanosec: 650000000
  frame_id: odom
pose:
  pose:
    position:
      x: -0.11293674486989672
      y: -0.003528972543109803
      z: 0.0
    orientation:
      x: 0.0
      y: 0.0
      z: 0.004109062815544154
      w: 0.9999915577657533
  covariance:
  - 0.007844519429576891
  - 0.0007980260993685906
  - 0.0
  - 0.0
  - 0.0
  - -0.0003854804839230324
  - 0.0007980260993685906
  - 0.0088672552005463
  - 0.0
  - 0.0
  - 0.0
  - -0.0007641824781406048
  - 0.0
  - 0.0
  - -1.0
  - 0.0
  - 0.0
  - 0.0
  - 0.0
  - 0.0
  - 0.0
  - -1.0
  - 0.0
  - 0.0
  - 0.0
  - 0.0
  - 0.0
  - 0.0
  - -1.0
  - 0.0
  - -0.0003854804839230324
  - -0.0007641824781406048
  - 0.0
  - 0.0
  - 0.0
  - 0.0031570162343020915
---
header:
  stamp:
    sec: 10
    nanosec: 650000000
  frame_id: odom
pose:
  pose:
    position:
      x: -0.11293674486989672
      y: -0.003528972543109803
      z: 0.0
    orientation:
      x: 0.0
      y: 0.0
      z: 0.004109062815544154
      w: 0.9999915577657533
  covariance:
  - 0.008844519429576892
  - 0.0007980260993685905
  - 0.0
  - 0.0
  - 0.0
  - -0.0003854804839230324
  - 0.0007980260993685905
  - 0.0098672552005463
  - 0.0
  - 0.0
  - 0.0
  - -0.0007641824781406048
  - 0.0
  - 0.0
  - -1.0
  - 0.0
  - 0.0
  - 0.0
  - 0.0
  - 0.0
  - 0.0
  - -1.0
  - 0.0
  - 0.0
  - 0.0
  - 0.0
  - 0.0
  - 0.0
  - -1.0
  - 0.0
  - -0.0003854804839230324
  - -0.0007641824781406048
  - 0.0
  - 0.0
  - 0.0
  - 0.0035570162343020917
---
header:
  stamp:
    sec: 10
    nanosec: 650000000
  frame_id: odom
pose:
  pose:
    position:
      x: -0.11293674486989672
      y: -0.003528972543109803
      z: 0.0
    orientation:
      x: 0.0
      y: 0.0
      z: 0.004109062815544154
      w: 0.9999915577657533
  covariance:
  - 0.009844519429576891
  - 0.0007980260993685906
  - 0.0
  - 0.0
  - 0.0
  - -0.0003854804839230324
  - 0.0007980260993685906
  - 0.010867255200546301
  - 0.0
  - 0.0
  - 0.0
  - -0.0007641824781406048
  - 0.0
  - 0.0
  - -1.0
  - 0.0
  - 0.0
  - 0.0
  - 0.0
  - 0.0
  - 0.0
  - -1.0
  - 0.0
  - 0.0
  - 0.0
  - 0.0
  - 0.0
  - 0.0
  - -1.0
  - 0.0
  - -0.0003854804839230324
  - -0.0007641824781406048
  - 0.0
  - 0.0
  - 0.0
  - 0.0039570162343020914
---
header:
  stamp:
    sec: 10
    nanosec: 650000000
  frame_id: odom
pose:
  pose:
    position:
      x: -0.11293674486989672
      y: -0.003528972543109803
      z: 0.0
    orientation:
      x: 0.0
      y: 0.0
      z: 0.004109062815544154
      w: 0.9999915577657533
  covariance:
  - 0.010844519429576892
  - 0.0007980260993685908
  - 0.0
  - 0.0
  - 0.0
  - -0.0003854804839230324
  - 0.0007980260993685908
  - 0.011867255200546302
  - 0.0
  - 0.0
  - 0.0
  - -0.0007641824781406048
  - 0.0
  - 0.0
  - -1.0
  - 0.0
  - 0.0
  - 0.0
  - 0.0
  - 0.0
  - 0.0
  - -1.0
  - 0.0
  - 0.0
  - 0.0
  - 0.0
  - 0.0
  - 0.0
  - -1.0
  - 0.0
  - -0.0003854804839230324
  - -0.0007641824781406048
  - 0.0
  - 0.0
  - 0.0
  - 0.004357016234302092
---
header:
  stamp:
    sec: 10
    nanosec: 700000000
  frame_id: odom
pose:
  pose:
    position:
      x: -0.1272292178549986
      y: -0.003803517793819566
      z: 0.0
    orientation:
      x: 0.0
      y: 0.0
      z: 0.0038846651331477344
      w: 0.9999924546599356
  covariance:
  - 0.011844308094315198
  - 0.0008033086694720609
  - 0.0
  - 0.0
  - 0.0
  - -0.0003842842858086395
  - 0.0008033086694720609
  - 0.012889989343945604
  - 0.0
  - 0.0
  - 0.0
  - -0.0008264550149650179
  - 0.0
  - 0.0
  - -1.0
  - 0.0
  - 0.0
  - 0.0
  - 0.0
  - 0.0
  - 0.0
  - -1.0
  - 0.0
  - 0.0
  - 0.0
  - 0.0
  - 0.0
  - 0.0
  - -1.0
  - 0.0
  - -0.0003842842858086395
  - -0.0008264550149650179
  - 0.0
  - 0.0
  - 0.0
  - 0.004757016234302092
---
header:
  stamp:
    sec: 10
    nanosec: 700000000
  frame_id: odom
pose:
  pose:
    position:
      x: -0.125814352740297
      y: -0.00547058918373805
      z: 0.0
    orientation:
      x: 0.0
      y: 0.0
      z: 0.004516985835822828
      w: 0.9999897983674428
  covariance:
  - 0.0008516549969330978
  - 0.0008135166353172221
  - 0.0
  - 0.0
  - 0.0
  - -0.0003902310362726354
  - 0.0008135166353172221
  - 0.0019185522448414171
  - 0.0
  - 0.0
  - 0.0
  - -0.0007811007221667353
  - 0.0
  - 0.0
  - -1.0
  - 0.0
  - 0.0
  - 0.0
  - 0.0
  - 0.0
  - 0.0
  - -1.0
  - 0.0
  - 0.0
  - 0.0
  - 0.0
  - 0.0
  - 0.0
  - -1.0
  - 0.0
  - -0.0003902310362726354
  - -0.0007811007221667353
  - 0.0
  - 0.0
  - 0.0
  - 0.00036268014428034596
---
header:
  stamp:
    sec: 10
    nanosec: 750000000
  frame_id: odom
pose:
  pose:
    position:
      x: -0.13995094279566356
      y: -0.0055983026465026495
      z: 0.0
    orientation:
      x: 0.0
      y: 0.0
      z: 0.0045169858358227255
      w: 0.9999897983674428
  covariance:
  - 0.001851555327334834
  - 0.0008189327596312404
  - 0.0
  - 0.0
  - 0.0
  - -0.0003901847171355334
  - 0.0008189327596312404
  - 0.002940708925396634
  - 0.0
  - 0.0
  - 0.0
  - -0.0007862277826876478
  - 0.0
  - 0.0
  - -1.0
  - 0.0
  - 0.0
  - 0.0
  - 0.0
  - 0.0
  - 0.0
  - -1.0
  - 0.0
  - 0.0
  - 0.0
  - 0.0
  - 0.0
  - 0.0
  - -1.0
  - 0.0
  - -0.0003901847171355334
  - -0.0007862277826876478
  - 0.0
  - 0.0
  - 0.0
  - 0.000762680144280346
---
header:
  stamp:
    sec: 10
    nanosec: 750000000
  frame_id: odom
pose:
  pose:
    position:
      x: -0.13995094279566356
      y: -0.0055983026465026495
      z: 0.0
    orientation:
      x: 0.0
      y: 0.0
      z: 0.0045169858358227255
      w: 0.9999897983674428
  covariance:
  - 0.0028515553273348337
  - 0.0008189327596312404
  - 0.0
  - 0.0
  - 0.0
  - -0.0003901847171355334
  - 0.0008189327596312404
  - 0.003940708925396634
  - 0.0
  - 0.0
  - 0.0
  - -0.0007862277826876477
  - 0.0
  - 0.0
  - -1.0
  - 0.0
  - 0.0
  - 0.0
  - 0.0
  - 0.0
  - 0.0
  - -1.0
  - 0.0
  - 0.0
  - 0.0
  - 0.0
  - 0.0
  - 0.0
  - -1.0
  - 0.0
  - -0.0003901847171355334
  - -0.0007862277826876477
  - 0.0
  - 0.0
  - 0.0
  - 0.001162680144280346
---
header:
  stamp:
    sec: 10
    nanosec: 750000000
  frame_id: odom
pose:
  pose:
    position:
      x: -0.13995094279566356
      y: -0.0055983026465026495
      z: 0.0
    orientation:
      x: 0.0
      y: 0.0
      z: 0.0045169858358227255
      w: 0.9999897983674428
  covariance:
  - 0.0038515553273348337
  - 0.0008189327596312404
  - 0.0
  - 0.0
  - 0.0
  - -0.0003901847171355333
  - 0.0008189327596312404
  - 0.004940708925396635
  - 0.0
  - 0.0
  - 0.0
  - -0.0007862277826876476
  - 0.0
  - 0.0
  - -1.0
  - 0.0
  - 0.0
  - 0.0
  - 0.0
  - 0.0
  - 0.0
  - -1.0
  - 0.0
  - 0.0
  - 0.0
  - 0.0
  - 0.0
  - 0.0
  - -1.0
  - 0.0
  - -0.0003901847171355333
  - -0.0007862277826876476
  - 0.0
  - 0.0
  - 0.0
  - 0.001562680144280346
---
header:
  stamp:
    sec: 10
    nanosec: 750000000
  frame_id: odom
pose:
  pose:
    position:
      x: -0.13995094279566356
      y: -0.0055983026465026495
      z: 0.0
    orientation:
      x: 0.0
      y: 0.0
      z: 0.0045169858358227255
      w: 0.9999897983674428
  covariance:
  - 0.004851555327334833
  - 0.0008189327596312404
  - 0.0
  - 0.0
  - 0.0
  - -0.0003901847171355333
  - 0.0008189327596312404
  - 0.005940708925396635
  - 0.0
  - 0.0
  - 0.0
  - -0.0007862277826876477
  - 0.0
  - 0.0
  - -1.0
  - 0.0
  - 0.0
  - 0.0
  - 0.0
  - 0.0
  - 0.0
  - -1.0
  - 0.0
  - 0.0
  - 0.0
  - 0.0
  - 0.0
  - 0.0
  - -1.0
  - 0.0
  - -0.0003901847171355333
  - -0.0007862277826876477
  - 0.0
  - 0.0
  - 0.0
  - 0.001962680144280346
---
header:
  stamp:
    sec: 10
    nanosec: 750000000
  frame_id: odom
pose:
  pose:
    position:
      x: -0.13995094279566356
      y: -0.0055983026465026495
      z: 0.0
    orientation:
      x: 0.0
      y: 0.0
      z: 0.0045169858358227255
      w: 0.9999897983674428
  covariance:
  - 0.005851555327334833
  - 0.0008189327596312404
  - 0.0
  - 0.0
  - 0.0
  - -0.0003901847171355333
  - 0.0008189327596312404
  - 0.006940708925396634
  - 0.0
  - 0.0
  - 0.0
  - -0.0007862277826876477
  - 0.0
  - 0.0
  - -1.0
  - 0.0
  - 0.0
  - 0.0
  - 0.0
  - 0.0
  - 0.0
  - -1.0
  - 0.0
  - 0.0
  - 0.0
  - 0.0
  - 0.0
  - 0.0
  - -1.0
  - 0.0
  - -0.0003901847171355333
  - -0.0007862277826876477
  - 0.0
  - 0.0
  - 0.0
  - 0.002362680144280346
---
header:
  stamp:
    sec: 10
    nanosec: 750000000
  frame_id: odom
pose:
  pose:
    position:
      x: -0.13995094279566356
      y: -0.0055983026465026495
      z: 0.0
    orientation:
      x: 0.0
      y: 0.0
      z: 0.0045169858358227255
      w: 0.9999897983674428
  covariance:
  - 0.006851555327334833
  - 0.0008189327596312402
  - 0.0
  - 0.0
  - 0.0
  - -0.0003901847171355333
  - 0.0008189327596312402
  - 0.007940708925396634
  - 0.0
  - 0.0
  - 0.0
  - -0.0007862277826876477
  - 0.0
  - 0.0
  - -1.0
  - 0.0
  - 0.0
  - 0.0
  - 0.0
  - 0.0
  - 0.0
  - -1.0
  - 0.0
  - 0.0
  - 0.0
  - 0.0
  - 0.0
  - 0.0
  - -1.0
  - 0.0
  - -0.0003901847171355333
  - -0.0007862277826876477
  - 0.0
  - 0.0
  - 0.0
  - 0.0027626801442803463
---
header:
  stamp:
    sec: 10
    nanosec: 750000000
  frame_id: odom
pose:
  pose:
    position:
      x: -0.13995094279566356
      y: -0.0055983026465026495
      z: 0.0
    orientation:
      x: 0.0
      y: 0.0
      z: 0.0045169858358227255
      w: 0.9999897983674428
  covariance:
  - 0.007851555327334834
  - 0.0008189327596312402
  - 0.0
  - 0.0
  - 0.0
  - -0.0003901847171355333
  - 0.0008189327596312402
  - 0.008940708925396635
  - 0.0
  - 0.0
  - 0.0
  - -0.0007862277826876478
  - 0.0
  - 0.0
  - -1.0
  - 0.0
  - 0.0
  - 0.0
  - 0.0
  - 0.0
  - 0.0
  - -1.0
  - 0.0
  - 0.0
  - 0.0
  - 0.0
  - 0.0
  - 0.0
  - -1.0
  - 0.0
  - -0.0003901847171355333
  - -0.0007862277826876478
  - 0.0
  - 0.0
  - 0.0
  - 0.0031626801442803465
---
header:
  stamp:
    sec: 10
    nanosec: 750000000
  frame_id: odom
pose:
  pose:
    position:
      x: -0.13995094279566356
      y: -0.0055983026465026495
      z: 0.0
    orientation:
      x: 0.0
      y: 0.0
      z: 0.0045169858358227255
      w: 0.9999897983674428
  covariance:
  - 0.008851555327334835
  - 0.0008189327596312402
  - 0.0
  - 0.0
  - 0.0
  - -0.0003901847171355333
  - 0.0008189327596312402
  - 0.009940708925396634
  - 0.0
  - 0.0
  - 0.0
  - -0.0007862277826876478
  - 0.0
  - 0.0
  - -1.0
  - 0.0
  - 0.0
  - 0.0
  - 0.0
  - 0.0
  - 0.0
  - -1.0
  - 0.0
  - 0.0
  - 0.0
  - 0.0
  - 0.0
  - 0.0
  - -1.0
  - 0.0
  - -0.0003901847171355333
  - -0.0007862277826876478
  - 0.0
  - 0.0
  - 0.0
  - 0.0035626801442803467
---
header:
  stamp:
    sec: 10
    nanosec: 750000000
  frame_id: odom
pose:
  pose:
    position:
      x: -0.13995094279566356
      y: -0.0055983026465026495
      z: 0.0
    orientation:
      x: 0.0
      y: 0.0
      z: 0.0045169858358227255
      w: 0.9999897983674428
  covariance:
  - 0.009851555327334833
  - 0.0008189327596312402
  - 0.0
  - 0.0
  - 0.0
  - -0.0003901847171355333
  - 0.0008189327596312402
  - 0.010940708925396635
  - 0.0
  - 0.0
  - 0.0
  - -0.0007862277826876478
  - 0.0
  - 0.0
  - -1.0
  - 0.0
  - 0.0
  - 0.0
  - 0.0
  - 0.0
  - 0.0
  - -1.0
  - 0.0
  - 0.0
  - 0.0
  - 0.0
  - 0.0
  - 0.0
  - -1.0
  - 0.0
  - -0.0003901847171355333
  - -0.0007862277826876478
  - 0.0
  - 0.0
  - 0.0
  - 0.003962680144280347
---
header:
  stamp:
    sec: 10
    nanosec: 800000000
  frame_id: odom
pose:
  pose:
    position:
      x: -0.1540875328510301
      y: -0.005726016109267247
      z: 0.0
    orientation:
      x: 0.0
      y: 0.0
      z: 0.0045169858358227255
      w: 0.9999897983674428
  covariance:
  - 0.010851455728286346
  - 0.0008243410747976291
  - 0.0
  - 0.0
  - 0.0
  - -0.0003896786295324788
  - 0.0008243410747976291
  - 0.011963729999699614
  - 0.0
  - 0.0
  - 0.0
  - -0.0008422465674078798
  - 0.0
  - 0.0
  - -1.0
  - 0.0
  - 0.0
  - 0.0
  - 0.0
  - 0.0
  - 0.0
  - -1.0
  - 0.0
  - 0.0
  - 0.0
  - 0.0
  - 0.0
  - 0.0
  - -1.0
  - 0.0
  - -0.0003896786295324788
  - -0.0008422465674078798
  - 0.0
  - 0.0
  - 0.0
  - 0.004362680144280347
---
header:
  stamp:
    sec: 10
    nanosec: 800000000
  frame_id: odom
pose:
  pose:
    position:
      x: -0.15306098226666295
      y: -0.007374114820069058
      z: 0.0
    orientation:
      x: 0.0
      y: 0.0
      z: 0.005126050501065353
      w: 0.9999868617168229
  covariance:
  - 0.000842101221727692
  - 0.0008082702505062049
  - 0.0
  - 0.0
  - 0.0
  - -0.00038327969946508735
  - 0.0008082702505062049
  - 0.0019416653971804504
  - 0.0
  - 0.0
  - 0.0
  - -0.0007812748475243331
  - 0.0
  - 0.0
  - -1.0
  - 0.0
  - 0.0
  - 0.0
  - 0.0
  - 0.0
  - 0.0
  - -1.0
  - 0.0
  - 0.0
  - 0.0
  - 0.0
  - 0.0
  - 0.0
  - -1.0
  - 0.0
  - -0.00038327969946508735
  - -0.0007812748475243331
  - 0.0
  - 0.0
  - 0.0
  - 0.00035880060276666627
---
header:
  stamp:
    sec: 10
    nanosec: 850000000
  frame_id: odom
pose:
  pose:
    position:
      x: -0.1675115490157011
      y: -0.0075222693294314975
      z: 0.0
    orientation:
      x: 0.0
      y: 0.0
      z: 0.005574843023818721
      w: 0.9999844604418909
  covariance:
  - 0.001841987660371633
  - 0.0008136923418329883
  - 0.0
  - 0.0
  - 0.0
  - -0.0003832265415378255
  - 0.0008136923418329883
  - 0.002964320050187227
  - 0.0
  - 0.0
  - 0.0
  - -0.0007864597195842081
  - 0.0
  - 0.0
  - -1.0
  - 0.0
  - 0.0
  - 0.0
  - 0.0
  - 0.0
  - 0.0
  - -1.0
  - 0.0
  - 0.0
  - 0.0
  - 0.0
  - 0.0
  - 0.0
  - -1.0
  - 0.0
  - -0.0003832265415378255
  - -0.0007864597195842081
  - 0.0
  - 0.0
  - 0.0
  - 0.0007588006027666662
---
header:
  stamp:
    sec: 10
    nanosec: 850000000
  frame_id: odom
pose:
  pose:
    position:
      x: -0.1675115490157011
      y: -0.0075222693294314975
      z: 0.0
    orientation:
      x: 0.0
      y: 0.0
      z: 0.005574843023818721
      w: 0.9999844604418909
  covariance:
  - 0.0028419876603716326
  - 0.0008136923418329883
  - 0.0
  - 0.0
  - 0.0
  - -0.0003832265415378255
  - 0.0008136923418329883
  - 0.003964320050187227
  - 0.0
  - 0.0
  - 0.0
  - -0.0007864597195842081
  - 0.0
  - 0.0
  - -1.0
  - 0.0
  - 0.0
  - 0.0
  - 0.0
  - 0.0
  - 0.0
  - -1.0
  - 0.0
  - 0.0
  - 0.0
  - 0.0
  - 0.0
  - 0.0
  - -1.0
  - 0.0
  - -0.0003832265415378255
  - -0.0007864597195842081
  - 0.0
  - 0.0
  - 0.0
  - 0.0011588006027666662
---
header:
  stamp:
    sec: 10
    nanosec: 850000000
  frame_id: odom
pose:
  pose:
    position:
      x: -0.1675115490157011
      y: -0.0075222693294314975
      z: 0.0
    orientation:
      x: 0.0
      y: 0.0
      z: 0.005574843023818721
      w: 0.9999844604418909
  covariance:
  - 0.003841987660371633
  - 0.0008136923418329882
  - 0.0
  - 0.0
  - 0.0
  - -0.0003832265415378255
  - 0.0008136923418329882
  - 0.004964320050187228
  - 0.0
  - 0.0
  - 0.0
  - -0.000786459719584208
  - 0.0
  - 0.0
  - -1.0
  - 0.0
  - 0.0
  - 0.0
  - 0.0
  - 0.0
  - 0.0
  - -1.0
  - 0.0
  - 0.0
  - 0.0
  - 0.0
  - 0.0
  - 0.0
  - -1.0
  - 0.0
  - -0.0003832265415378255
  - -0.000786459719584208
  - 0.0
  - 0.0
  - 0.0
  - 0.0015588006027666662
---
header:
  stamp:
    sec: 10
    nanosec: 850000000
  frame_id: odom
pose:
  pose:
    position:
      x: -0.1675115490157011
      y: -0.0075222693294314975
      z: 0.0
    orientation:
      x: 0.0
      y: 0.0
      z: 0.005574843023818721
      w: 0.9999844604418909
  covariance:
  - 0.004841987660371632
  - 0.0008136923418329881
  - 0.0
  - 0.0
  - 0.0
  - -0.0003832265415378255
  - 0.0008136923418329881
  - 0.005964320050187227
  - 0.0
  - 0.0
  - 0.0
  - -0.0007864597195842081
  - 0.0
  - 0.0
  - -1.0
  - 0.0
  - 0.0
  - 0.0
  - 0.0
  - 0.0
  - 0.0
  - -1.0
  - 0.0
  - 0.0
  - 0.0
  - 0.0
  - 0.0
  - 0.0
  - -1.0
  - 0.0
  - -0.0003832265415378255
  - -0.0007864597195842081
  - 0.0
  - 0.0
  - 0.0
  - 0.001958800602766666
---
header:
  stamp:
    sec: 10
    nanosec: 850000000
  frame_id: odom
pose:
  pose:
    position:
      x: -0.1675115490157011
      y: -0.0075222693294314975
      z: 0.0
    orientation:
      x: 0.0
      y: 0.0
      z: 0.005574843023818721
      w: 0.9999844604418909
  covariance:
  - 0.005841987660371633
  - 0.0008136923418329881
  - 0.0
  - 0.0
  - 0.0
  - -0.0003832265415378255
  - 0.0008136923418329881
  - 0.006964320050187228
  - 0.0
  - 0.0
  - 0.0
  - -0.0007864597195842081
  - 0.0
  - 0.0
  - -1.0
  - 0.0
  - 0.0
  - 0.0
  - 0.0
  - 0.0
  - 0.0
  - -1.0
  - 0.0
  - 0.0
  - 0.0
  - 0.0
  - 0.0
  - 0.0
  - -1.0
  - 0.0
  - -0.0003832265415378255
  - -0.0007864597195842081
  - 0.0
  - 0.0
  - 0.0
  - 0.0023588006027666663
---
header:
  stamp:
    sec: 10
    nanosec: 850000000
  frame_id: odom
pose:
  pose:
    position:
      x: -0.1675115490157011
      y: -0.0075222693294314975
      z: 0.0
    orientation:
      x: 0.0
      y: 0.0
      z: 0.005574843023818721
      w: 0.9999844604418909
  covariance:
  - 0.006841987660371633
  - 0.0008136923418329881
  - 0.0
  - 0.0
  - 0.0
  - -0.00038322654153782556
  - 0.0008136923418329881
  - 0.007964320050187228
  - 0.0
  - 0.0
  - 0.0
  - -0.0007864597195842082
  - 0.0
  - 0.0
  - -1.0
  - 0.0
  - 0.0
  - 0.0
  - 0.0
  - 0.0
  - 0.0
  - -1.0
  - 0.0
  - 0.0
  - 0.0
  - 0.0
  - 0.0
  - 0.0
  - -1.0
  - 0.0
  - -0.00038322654153782556
  - -0.0007864597195842082
  - 0.0
  - 0.0
  - 0.0
  - 0.0027588006027666665
---
header:
  stamp:
    sec: 10
    nanosec: 850000000
  frame_id: odom
pose:
  pose:
    position:
      x: -0.1675115490157011
      y: -0.0075222693294314975
      z: 0.0
    orientation:
      x: 0.0
      y: 0.0
      z: 0.005574843023818721
      w: 0.9999844604418909
  covariance:
  - 0.007841987660371634
  - 0.0008136923418329881
  - 0.0
  - 0.0
  - 0.0
  - -0.00038322654153782556
  - 0.0008136923418329881
  - 0.008964320050187227
  - 0.0
  - 0.0
  - 0.0
  - -0.0007864597195842082
  - 0.0
  - 0.0
  - -1.0
  - 0.0
  - 0.0
  - 0.0
  - 0.0
  - 0.0
  - 0.0
  - -1.0
  - 0.0
  - 0.0
  - 0.0
  - 0.0
  - 0.0
  - 0.0
  - -1.0
  - 0.0
  - -0.00038322654153782556
  - -0.0007864597195842082
  - 0.0
  - 0.0
  - 0.0
  - 0.0031588006027666667
---
header:
  stamp:
    sec: 10
    nanosec: 850000000
  frame_id: odom
pose:
  pose:
    position:
      x: -0.1675115490157011
      y: -0.0075222693294314975
      z: 0.0
    orientation:
      x: 0.0
      y: 0.0
      z: 0.005574843023818721
      w: 0.9999844604418909
  covariance:
  - 0.008841987660371633
  - 0.0008136923418329881
  - 0.0
  - 0.0
  - 0.0
  - -0.00038322654153782556
  - 0.0008136923418329881
  - 0.009964320050187226
  - 0.0
  - 0.0
  - 0.0
  - -0.0007864597195842082
  - 0.0
  - 0.0
  - -1.0
  - 0.0
  - 0.0
  - 0.0
  - 0.0
  - 0.0
  - 0.0
  - -1.0
  - 0.0
  - 0.0
  - 0.0
  - 0.0
  - 0.0
  - 0.0
  - -1.0
  - 0.0
  - -0.00038322654153782556
  - -0.0007864597195842082
  - 0.0
  - 0.0
  - 0.0
  - 0.003558800602766667
---
header:
  stamp:
    sec: 10
    nanosec: 850000000
  frame_id: odom
pose:
  pose:
    position:
      x: -0.1675115490157011
      y: -0.0075222693294314975
      z: 0.0
    orientation:
      x: 0.0
      y: 0.0
      z: 0.005574843023818721
      w: 0.9999844604418909
  covariance:
  - 0.009841987660371636
  - 0.0008136923418329883
  - 0.0
  - 0.0
  - 0.0
  - -0.00038322654153782556
  - 0.0008136923418329883
  - 0.010964320050187226
  - 0.0
  - 0.0
  - 0.0
  - -0.0007864597195842082
  - 0.0
  - 0.0
  - -1.0
  - 0.0
  - 0.0
  - 0.0
  - 0.0
  - 0.0
  - 0.0
  - -1.0
  - 0.0
  - 0.0
  - 0.0
  - 0.0
  - 0.0
  - 0.0
  - -1.0
  - 0.0
  - -0.00038322654153782556
  - -0.0007864597195842082
  - 0.0
  - 0.0
  - 0.0
  - 0.003958800602766667
---
header:
  stamp:
    sec: 10
    nanosec: 850000000
  frame_id: odom
pose:
  pose:
    position:
      x: -0.1675115490157011
      y: -0.0075222693294314975
      z: 0.0
    orientation:
      x: 0.0
      y: 0.0
      z: 0.005574843023818721
      w: 0.9999844604418909
  covariance:
  - 0.010841987660371635
  - 0.0008136923418329882
  - 0.0
  - 0.0
  - 0.0
  - -0.0003832265415378255
  - 0.0008136923418329882
  - 0.011964320050187225
  - 0.0
  - 0.0
  - 0.0
  - -0.0007864597195842082
  - 0.0
  - 0.0
  - -1.0
  - 0.0
  - 0.0
  - 0.0
  - 0.0
  - 0.0
  - 0.0
  - -1.0
  - 0.0
  - 0.0
  - 0.0
  - 0.0
  - 0.0
  - 0.0
  - -1.0
  - 0.0
  - -0.0003832265415378255
  - -0.0007864597195842082
  - 0.0
  - 0.0
  - 0.0
  - 0.004358800602766667
---
header:
  stamp:
    sec: 10
    nanosec: 900000000
  frame_id: odom
pose:
  pose:
    position:
      x: -0.1814575596063699
      y: -0.00095611407148565
      z: 0.0
    orientation:
      x: 0.0
      y: 0.0
      z: 0.002888971914941533
      w: 0.99999582691193
  covariance:
  - 0.0008382058828199264
  - 0.0008135778634024674
  - 0.0
  - 0.0
  - 0.0
  - -0.0003803800858831125
  - 0.0008135778634024674
  - 0.0019910934465245662
  - 0.0
  - 0.0
  - 0.0
  - -0.0007912555202588159
  - 0.0
  - 0.0
  - -1.0
  - 0.0
  - 0.0
  - 0.0
  - 0.0
  - 0.0
  - 0.0
  - -1.0
  - 0.0
  - 0.0
  - 0.0
  - 0.0
  - 0.0
  - 0.0
  - -1.0
  - 0.0
  - -0.0003803800858831125
  - -0.0007912555202588159
  - 0.0
  - 0.0
  - 0.0
  - 0.0003586525477229293
---
header:
  stamp:
    sec: 10
    nanosec: 950000000
  frame_id: odom
pose:
  pose:
    position:
      x: -0.19559449056544553
      y: -0.0010377974871118082
      z: 0.0
    orientation:
      x: 0.0
      y: 0.0
      z: 0.0028889719149415996
      w: 0.99999582691193
  covariance:
  - 0.001838143743723619
  - 0.0008188902238062401
  - 0.0
  - 0.0
  - 0.0
  - -0.0003803507899179914
  - 0.0008188902238062401
  - 0.003013536973568305
  - 0.0
  - 0.0
  - 0.0
  - -0.0007963257665642715
  - 0.0
  - 0.0
  - -1.0
  - 0.0
  - 0.0
  - 0.0
  - 0.0
  - 0.0
  - 0.0
  - -1.0
  - 0.0
  - 0.0
  - 0.0
  - 0.0
  - 0.0
  - 0.0
  - -1.0
  - 0.0
  - -0.0003803507899179914
  - -0.0007963257665642715
  - 0.0
  - 0.0
  - 0.0
  - 0.0007586525477229294
---
header:
  stamp:
    sec: 10
    nanosec: 950000000
  frame_id: odom
pose:
  pose:
    position:
      x: -0.19559449056544553
      y: -0.0010377974871118082
      z: 0.0
    orientation:
      x: 0.0
      y: 0.0
      z: 0.0028889719149415996
      w: 0.99999582691193
  covariance:
  - 0.0028381437437236187
  - 0.0008188902238062401
  - 0.0
  - 0.0
  - 0.0
  - -0.0003803507899179914
  - 0.0008188902238062401
  - 0.004013536973568305
  - 0.0
  - 0.0
  - 0.0
  - -0.0007963257665642715
  - 0.0
  - 0.0
  - -1.0
  - 0.0
  - 0.0
  - 0.0
  - 0.0
  - 0.0
  - 0.0
  - -1.0
  - 0.0
  - 0.0
  - 0.0
  - 0.0
  - 0.0
  - 0.0
  - -1.0
  - 0.0
  - -0.0003803507899179914
  - -0.0007963257665642715
  - 0.0
  - 0.0
  - 0.0
  - 0.0011586525477229293
---
header:
  stamp:
    sec: 10
    nanosec: 950000000
  frame_id: odom
pose:
  pose:
    position:
      x: -0.19559449056544553
      y: -0.0010377974871118082
      z: 0.0
    orientation:
      x: 0.0
      y: 0.0
      z: 0.0028889719149415996
      w: 0.99999582691193
  covariance:
  - 0.0038381437437236187
  - 0.0008188902238062402
  - 0.0
  - 0.0
  - 0.0
  - -0.0003803507899179914
  - 0.0008188902238062402
  - 0.005013536973568305
  - 0.0
  - 0.0
  - 0.0
  - -0.0007963257665642714
  - 0.0
  - 0.0
  - -1.0
  - 0.0
  - 0.0
  - 0.0
  - 0.0
  - 0.0
  - 0.0
  - -1.0
  - 0.0
  - 0.0
  - 0.0
  - 0.0
  - 0.0
  - 0.0
  - -1.0
  - 0.0
  - -0.0003803507899179914
  - -0.0007963257665642714
  - 0.0
  - 0.0
  - 0.0
  - 0.0015586525477229293
---
header:
  stamp:
    sec: 10
    nanosec: 950000000
  frame_id: odom
pose:
  pose:
    position:
      x: -0.19559449056544553
      y: -0.0010377974871118082
      z: 0.0
    orientation:
      x: 0.0
      y: 0.0
      z: 0.0028889719149415996
      w: 0.99999582691193
  covariance:
  - 0.004838143743723619
  - 0.0008188902238062403
  - 0.0
  - 0.0
  - 0.0
  - -0.0003803507899179914
  - 0.0008188902238062403
  - 0.006013536973568305
  - 0.0
  - 0.0
  - 0.0
  - -0.0007963257665642715
  - 0.0
  - 0.0
  - -1.0
  - 0.0
  - 0.0
  - 0.0
  - 0.0
  - 0.0
  - 0.0
  - -1.0
  - 0.0
  - 0.0
  - 0.0
  - 0.0
  - 0.0
  - 0.0
  - -1.0
  - 0.0
  - -0.0003803507899179914
  - -0.0007963257665642715
  - 0.0
  - 0.0
  - 0.0
  - 0.0019586525477229295
---
header:
  stamp:
    sec: 10
    nanosec: 950000000
  frame_id: odom
pose:
  pose:
    position:
      x: -0.19559449056544553
      y: -0.0010377974871118082
      z: 0.0
    orientation:
      x: 0.0
      y: 0.0
      z: 0.0028889719149415996
      w: 0.99999582691193
  covariance:
  - 0.00583814374372362
  - 0.0008188902238062402
  - 0.0
  - 0.0
  - 0.0
  - -0.0003803507899179914
  - 0.0008188902238062402
  - 0.007013536973568305
  - 0.0
  - 0.0
  - 0.0
  - -0.0007963257665642715
  - 0.0
  - 0.0
  - -1.0
  - 0.0
  - 0.0
  - 0.0
  - 0.0
  - 0.0
  - 0.0
  - -1.0
  - 0.0
  - 0.0
  - 0.0
  - 0.0
  - 0.0
  - 0.0
  - -1.0
  - 0.0
  - -0.0003803507899179914
  - -0.0007963257665642715
  - 0.0
  - 0.0
  - 0.0
  - 0.0023586525477229297
---
header:
  stamp:
    sec: 10
    nanosec: 950000000
  frame_id: odom
pose:
  pose:
    position:
      x: -0.19559449056544553
      y: -0.0010377974871118082
      z: 0.0
    orientation:
      x: 0.0
      y: 0.0
      z: 0.0028889719149415996
      w: 0.99999582691193
  covariance:
  - 0.006838143743723619
  - 0.0008188902238062401
  - 0.0
  - 0.0
  - 0.0
  - -0.00038035078991799137
  - 0.0008188902238062401
  - 0.008013536973568306
  - 0.0
  - 0.0
  - 0.0
  - -0.0007963257665642715
  - 0.0
  - 0.0
  - -1.0
  - 0.0
  - 0.0
  - 0.0
  - 0.0
  - 0.0
  - 0.0
  - -1.0
  - 0.0
  - 0.0
  - 0.0
  - 0.0
  - 0.0
  - 0.0
  - -1.0
  - 0.0
  - -0.00038035078991799137
  - -0.0007963257665642715
  - 0.0
  - 0.0
  - 0.0
  - 0.00275865254772293
---
header:
  stamp:
    sec: 10
    nanosec: 950000000
  frame_id: odom
pose:
  pose:
    position:
      x: -0.19559449056544553
      y: -0.0010377974871118082
      z: 0.0
    orientation:
      x: 0.0
      y: 0.0
      z: 0.0028889719149415996
      w: 0.99999582691193
  covariance:
  - 0.00783814374372362
  - 0.0008188902238062403
  - 0.0
  - 0.0
  - 0.0
  - -0.00038035078991799137
  - 0.0008188902238062403
  - 0.009013536973568305
  - 0.0
  - 0.0
  - 0.0
  - -0.0007963257665642715
  - 0.0
  - 0.0
  - -1.0
  - 0.0
  - 0.0
  - 0.0
  - 0.0
  - 0.0
  - 0.0
  - -1.0
  - 0.0
  - 0.0
  - 0.0
  - 0.0
  - 0.0
  - 0.0
  - -1.0
  - 0.0
  - -0.00038035078991799137
  - -0.0007963257665642715
  - 0.0
  - 0.0
  - 0.0
  - 0.00315865254772293
---
header:
  stamp:
    sec: 10
    nanosec: 950000000
  frame_id: odom
pose:
  pose:
    position:
      x: -0.19559449056544553
      y: -0.0010377974871118082
      z: 0.0
    orientation:
      x: 0.0
      y: 0.0
      z: 0.0028889719149415996
      w: 0.99999582691193
  covariance:
  - 0.008838143743723619
  - 0.0008188902238062402
  - 0.0
  - 0.0
  - 0.0
  - -0.0003803507899179914
  - 0.0008188902238062402
  - 0.010013536973568304
  - 0.0
  - 0.0
  - 0.0
  - -0.0007963257665642717
  - 0.0
  - 0.0
  - -1.0
  - 0.0
  - 0.0
  - 0.0
  - 0.0
  - 0.0
  - 0.0
  - -1.0
  - 0.0
  - 0.0
  - 0.0
  - 0.0
  - 0.0
  - 0.0
  - -1.0
  - 0.0
  - -0.0003803507899179914
  - -0.0007963257665642717
  - 0.0
  - 0.0
  - 0.0
  - 0.00355865254772293
---
header:
  stamp:
    sec: 10
    nanosec: 950000000
  frame_id: odom
pose:
  pose:
    position:
      x: -0.19559449056544553
      y: -0.0010377974871118082
      z: 0.0
    orientation:
      x: 0.0
      y: 0.0
      z: 0.0028889719149415996
      w: 0.99999582691193
  covariance:
  - 0.00983814374372362
  - 0.0008188902238062402
  - 0.0
  - 0.0
  - 0.0
  - -0.00038035078991799137
  - 0.0008188902238062402
  - 0.011013536973568305
  - 0.0
  - 0.0
  - 0.0
  - -0.0007963257665642715
  - 0.0
  - 0.0
  - -1.0
  - 0.0
  - 0.0
  - 0.0
  - 0.0
  - 0.0
  - 0.0
  - -1.0
  - 0.0
  - 0.0
  - 0.0
  - 0.0
  - 0.0
  - 0.0
  - -1.0
  - 0.0
  - -0.00038035078991799137
  - -0.0007963257665642715
  - 0.0
  - 0.0
  - 0.0
  - 0.00395865254772293
---
header:
  stamp:
    sec: 10
    nanosec: 950000000
  frame_id: odom
pose:
  pose:
    position:
      x: -0.19559449056544553
      y: -0.0010377974871118082
      z: 0.0
    orientation:
      x: 0.0
      y: 0.0
      z: 0.0028889719149415996
      w: 0.99999582691193
  covariance:
  - 0.010838143743723619
  - 0.0008188902238062403
  - 0.0
  - 0.0
  - 0.0
  - -0.00038035078991799137
  - 0.0008188902238062403
  - 0.012013536973568304
  - 0.0
  - 0.0
  - 0.0
  - -0.0007963257665642715
  - 0.0
  - 0.0
  - -1.0
  - 0.0
  - 0.0
  - 0.0
  - 0.0
  - 0.0
  - 0.0
  - -1.0
  - 0.0
  - 0.0
  - 0.0
  - 0.0
  - 0.0
  - 0.0
  - -1.0
  - 0.0
  - -0.00038035078991799137
  - -0.0007963257665642715
  - 0.0
  - 0.0
  - 0.0
  - 0.0043586525477229306
---
header:
  stamp:
    sec: 11
    nanosec: 0
  frame_id: odom
pose:
  pose:
    position:
      x: -0.20720682512302632
      y: -0.00018907376622916486
      z: 0.0
    orientation:
      x: 0.0
      y: 0.0
      z: 0.0028380597341726432
      w: 0.999995972700363
  covariance:
  - 0.00028437346231153376
  - 1.218689804803527e-06
  - 0.0
  - 0.0
  - 0.0
  - -3.907301718383691e-07
  - 1.218689804803527e-06
  - 0.0007377363727967627
  - 0.0
  - 0.0
  - 0.0
  - -0.00023266520373834486
  - 0.0
  - 0.0
  - -1.0
  - 0.0
  - 0.0
  - 0.0
  - 0.0
  - 0.0
  - 0.0
  - -1.0
  - 0.0
  - 0.0
  - 0.0
  - 0.0
  - 0.0
  - 0.0
  - -1.0
  - 0.0
  - -3.907301718383691e-07
  - -0.00023266520373834486
  - 0.0
  - 0.0
  - 0.0
  - 9.862551119457129e-05
---
header:
  stamp:
    sec: 11
    nanosec: 0
  frame_id: odom
pose:
  pose:
    position:
      x: -0.20720682512302632
      y: -0.00018907376622916486
      z: 0.0
    orientation:
      x: 0.0
      y: 0.0
      z: 0.002838059734172552
      w: 0.999995972700363
  covariance:
  - 0.0012843734623115338
  - 1.218689804803527e-06
  - 0.0
  - 0.0
  - 0.0
  - -3.9073017183836917e-07
  - 1.218689804803527e-06
  - 0.0017377363727967628
  - 0.0
  - 0.0
  - 0.0
  - -0.00023266520373834486
  - 0.0
  - 0.0
  - -1.0
  - 0.0
  - 0.0
  - 0.0
  - 0.0
  - 0.0
  - 0.0
  - -1.0
  - 0.0
  - 0.0
  - 0.0
  - 0.0
  - 0.0
  - 0.0
  - -1.0
  - 0.0
  - -3.9073017183836917e-07
  - -0.00023266520373834486
  - 0.0
  - 0.0
  - 0.0
  - 0.0004986255111945713
---
header:
  stamp:
    sec: 11
    nanosec: 50000000
  frame_id: odom
pose:
  pose:
    position:
      x: -0.2215017330276378
      y: -0.00011313218847624836
      z: 0.0
    orientation:
      x: 0.0
      y: 0.0
      z: 0.003062458232366364
      w: 0.9999953106637925
  covariance:
  - 0.002284373524532499
  - 1.2424855161010414e-06
  - 0.0
  - 0.0
  - 0.0
  - -4.285965798663394e-07
  - 1.2424855161010414e-06
  - 0.0027444901194437787
  - 0.0
  - 0.0
  - 0.0
  - -0.0002397930094997611
  - 0.0
  - 0.0
  - -1.0
  - 0.0
  - 0.0
  - 0.0
  - 0.0
  - 0.0
  - 0.0
  - -1.0
  - 0.0
  - 0.0
  - 0.0
  - 0.0
  - 0.0
  - 0.0
  - -1.0
  - 0.0
  - -4.285965798663394e-07
  - -0.0002397930094997611
  - 0.0
  - 0.0
  - 0.0
  - 0.0008986255111945714
---
header:
  stamp:
    sec: 11
    nanosec: 50000000
  frame_id: odom
pose:
  pose:
    position:
      x: -0.2215017330276378
      y: -0.00011313218847624836
      z: 0.0
    orientation:
      x: 0.0
      y: 0.0
      z: 0.003062458232366364
      w: 0.9999953106637925
  covariance:
  - 0.003284373524532499
  - 1.2424855161010417e-06
  - 0.0
  - 0.0
  - 0.0
